<kml xmlns="http://www.opengis.net/kml/2.2"><Document><name>BeNeLux Xmas 2016</name><Placemark><name>Home</name><address>Royston SG8, UK</address><ExtendedData><Data name="duration"><value>3600000</value></Data></ExtendedData><Point><coordinates>-0.02403,52.05122</coordinates></Point></Placemark><Placemark><name>Alex&apos;s home</name><address>Orsman Rd, London, United Kingdom</address><Point><coordinates>-0.07830,51.53645</coordinates></Point></Placemark><Placemark><name>Dover (Ferry Port)</name><address>United Kingdom, Dover, </address><description> 51º07.588N 001º19.624E</description><ExtendedData><Data name="duration"><value>3600000</value></Data></ExtendedData><Point><coordinates>1.32799,51.12645</coordinates></Point></Placemark><Placemark><name>DFDS Seaways - Dunkerque</name><address>Terminal Roulier, Loon-Plage, France</address><ExtendedData><Data name="duration"><value>3600000</value></Data></ExtendedData><Point><coordinates>2.18958,51.01966</coordinates></Point></Placemark><Placemark><name>Charlie Rockets Youth Hostel</name><address>Hoogstraat 19 8000 Bruges, Belgium</address><Point><coordinates>3.22906,51.20963</coordinates></Point></Placemark><Placemark><name>The Pantone Hotel Brussels</name><address>Place Loix 1 1060 Saint-Gilles, Bruxelles, Belgium</address><Point><coordinates>4.35314,50.83183</coordinates></Point></Placemark><Placemark><name>Antwerp AirBnB</name><address>Houwerstraat 25, antwerpen, vlaanderen 2000, belgium</address><Point><coordinates>4.41651,51.22578</coordinates></Point></Placemark><Placemark><name>The Hague</name><address>The Hague, Netherlands</address><ExtendedData><Data name="duration"><value>3600000</value></Data></ExtendedData><Point><coordinates>4.29016,52.06938</coordinates></Point></Placemark><Placemark><name>Amsterdam AirBnB</name><address>Leo Hornstraat, 1095 Amsterdam, Noord-Holland, Netherlands</address><Point><coordinates>4.96920,52.37078</coordinates></Point></Placemark><Placemark><name>Amsterdam AirBnB</name><address>Leo Hornstraat, 1095 Amsterdam, Noord-Holland, Netherlands</address><Point><coordinates>4.96920,52.37078</coordinates></Point></Placemark><Placemark><name>Eindhoven</name><address>Eindhoven, Netherlands</address><ExtendedData><Data name="duration"><value>3600000</value></Data></ExtendedData><Point><coordinates>5.47394,51.44374</coordinates></Point></Placemark><Placemark><name>Youth Hostel Luxembourg City</name><address>2 Rue du Fort Olisy, Luxembourg City, Luxembourg</address><Point><coordinates>6.13811,49.61296</coordinates></Point></Placemark><Placemark><name>Nevers</name><address>Chaussée Route Nationale 4 711, 5330 Assesse, Belgium</address><Point><coordinates>5.00427,50.38313</coordinates></Point></Placemark><Placemark><name>Nevers</name><address>Chaussée Route Nationale 4 711, 5330 Assesse, Belgium</address><Point><coordinates>5.00427,50.38313</coordinates></Point></Placemark><Placemark><name>DFDS Seaways Dunkerque</name><address>Route de l&apos;Europe, 59279 Loon-Plage, France</address><ExtendedData><Data name="duration"><value>3600000</value></Data></ExtendedData><Point><coordinates>2.18958,51.01967</coordinates></Point></Placemark><Placemark><name>Dover Ferry Port</name><address>Dock Exit Rd, Dover CT16 1PS, UK</address><ExtendedData><Data name="duration"><value>3600000</value></Data></ExtendedData><Point><coordinates>1.32798,51.12645</coordinates></Point></Placemark><Placemark><address>M25, Upminster RM14, UK</address><Point><coordinates>0.00113,51.56111</coordinates></Point></Placemark><Placemark><name>Home</name><address>Royston SG8, UK</address><Point><coordinates>-0.02403,52.05122</coordinates></Point></Placemark></Document></kml>